{
  "type": "FeatureCollection",
  "features": [
    {
      "type": "Feature",
      "properties": {
        "id": 264281,
        "title": "Glasgow Central Station",
        "nearest-address": "107 Hope Street",
        "racks": 10,
        "ward": "Anderston / City",
        "permanent": true
      },
      "geometry": {
        "type": "Point",
        "coordinates": [
          -4.2588,
          55.860733
        ]
      }
    },
    {
      "type": "Feature",
      "properties": {
        "id": 264283,
        "title": "Waterloo Street",
        "nearest-address": "76 Waterloo Street",
        "racks": 10,
        "ward": "Anderston / City",
        "permanent": true
      },
      "geometry": {
        "type": "Point",
        "coordinates": [
          -4.264083,
          55.860767
        ]
      }
    },
    {
      "type": "Feature",
      "properties": {
        "id": 264286,
        "title": "Queen Street Railway Station",
        "nearest-address": "1 Dundas Street",
        "racks": 10,
        "ward": "Anderston / City",
        "permanent": true
      },
      "geometry": {
        "type": "Point",
        "coordinates": [
          -4.252283,
          55.861967
        ]
      }
    },
    {
      "type": "Feature",
      "properties": {
        "id": 264290,
        "title": "Buchanan Street Bus Station",
        "nearest-address": "10 Killermont Street",
        "racks": 10,
        "ward": "Anderston / City",
        "permanent": true
      },
      "geometry": {
        "type": "Point",
        "coordinates": [
          -4.25285,
          55.865067
        ]
      }
    },
    {
      "type": "Feature",
      "properties": {
        "id": 264292,
        "title": "George Square",
        "nearest-address": "50 West George Street",
        "racks": 10,
        "ward": "Anderston / City",
        "permanent": true
      },
      "geometry": {
        "type": "Point",
        "coordinates": [
          -4.2494,
          55.86155
        ]
      }
    },
    {
      "type": "Feature",
      "properties": {
        "id": 264293,
        "title": "Merchant Square",
        "nearest-address": "20 Bell Street",
        "racks": 10,
        "ward": "Anderston / City",
        "permanent": true
      },
      "geometry": {
        "type": "Point",
        "coordinates": [
          -4.245483,
          55.858167
        ]
      }
    },
    {
      "type": "Feature",
      "properties": {
        "id": 264294,
        "title": "St George's Cross",
        "nearest-address": "98 Great Western Road",
        "racks": 10,
        "ward": "Hillhead",
        "permanent": true
      },
      "geometry": {
        "type": "Point",
        "coordinates": [
          -4.269117,
          55.871367
        ]
      }
    },
    {
      "type": "Feature",
      "properties": {
        "id": 264295,
        "title": "St Enoch Square",
        "nearest-address": "14 St Enoch Square",
        "racks": 10,
        "ward": "Anderston / City",
        "permanent": true
      },
      "geometry": {
        "type": "Point",
        "coordinates": [
          -4.255117,
          55.85775
        ]
      }
    },
    {
      "type": "Feature",
      "properties": {
        "id": 264296,
        "title": "Glasgow Cathedral",
        "nearest-address": "20 Cathedral Street",
        "racks": 10,
        "ward": "Anderston / City",
        "permanent": true
      },
      "geometry": {
        "type": "Point",
        "coordinates": [
          -4.237467,
          55.862883
        ]
      }
    },
    {
      "type": "Feature",
      "properties": {
        "id": 264298,
        "title": "Glasgow Green",
        "nearest-address": "82 Templeton Street",
        "racks": 8,
        "ward": "Calton",
        "permanent": true
      },
      "geometry": {
        "type": "Point",
        "coordinates": [
          -4.23375,
          55.84945
        ]
      }
    },
    {
      "type": "Feature",
      "properties": {
        "id": 264299,
        "title": "Broomielaw",
        "nearest-address": "150 Broomielaw (5 Atlantic Quay)",
        "racks": 10,
        "ward": "Anderston / City",
        "permanent": true
      },
      "geometry": {
        "type": "Point",
        "coordinates": [
          -4.26375,
          55.85665
        ]
      }
    },
    {
      "type": "Feature",
      "properties": {
        "id": 264300,
        "title": "S.E.C.C",
        "nearest-address": "1 Congress Road",
        "racks": 8,
        "ward": "Anderston / City",
        "permanent": true
      },
      "geometry": {
        "type": "Point",
        "coordinates": [
          -4.287083,
          55.859133
        ]
      }
    },
    {
      "type": "Feature",
      "properties": {
        "id": 264301,
        "title": "Riverside Museum",
        "nearest-address": "100 Pointhouse Road",
        "racks": 10,
        "ward": "Anderston / City",
        "permanent": true
      },
      "geometry": {
        "type": "Point",
        "coordinates": [
          -4.305367,
          55.865683
        ]
      }
    },
    {
      "type": "Feature",
      "properties": {
        "id": 264302,
        "title": "Botanic Gardens",
        "nearest-address": "735 Great Western Road",
        "racks": 5,
        "ward": "Maryhill / Kelvin",
        "permanent": true
      },
      "geometry": {
        "type": "Point",
        "coordinates": [
          -4.289417,
          55.87765
        ]
      }
    },
    {
      "type": "Feature",
      "properties": {
        "id": 264303,
        "title": "Kelvinbridge Subway",
        "nearest-address": "445 Great Western Road",
        "racks": 8,
        "ward": "Hillhead",
        "permanent": true
      },
      "geometry": {
        "type": "Point",
        "coordinates": [
          -4.28035,
          55.87505
        ]
      }
    },
    {
      "type": "Feature",
      "properties": {
        "id": 264304,
        "title": "Kelvingrove Art Gallery",
        "nearest-address": "1 Kelvingrove Park",
        "racks": 8,
        "ward": "Anderston / City",
        "permanent": true
      },
      "geometry": {
        "type": "Point",
        "coordinates": [
          -4.28945,
          55.868283
        ]
      }
    },
    {
      "type": "Feature",
      "properties": {
        "id": 264305,
        "title": "Charing Cross Railway Station",
        "nearest-address": "34 Elmbank Crescent",
        "racks": 8,
        "ward": "Anderston / City",
        "permanent": true
      },
      "geometry": {
        "type": "Point",
        "coordinates": [
          -4.27005,
          55.8646
        ]
      }
    },
    {
      "type": "Feature",
      "properties": {
        "id": 264306,
        "title": "University of Glasgow (West)",
        "nearest-address": "121 University Avenue",
        "racks": 8,
        "ward": "Hillhead",
        "permanent": true
      },
      "geometry": {
        "type": "Point",
        "coordinates": [
          -4.2927,
          55.8728
        ]
      }
    },
    {
      "type": "Feature",
      "properties": {
        "id": 264308,
        "title": "Mitchell Library",
        "nearest-address": "17 North Street",
        "racks": null,
        "ward": "Anderston / City",
        "permanent": true
      },
      "geometry": {
        "type": "Point",
        "coordinates": [
          -4.2718,
          55.8648
        ]
      }
    },
    {
      "type": "Feature",
      "properties": {
        "id": 264309,
        "title": "University of Strathclyde (North)",
        "nearest-address": "1 Taylor Street",
        "racks": 6,
        "ward": "Anderston / City",
        "permanent": true
      },
      "geometry": {
        "type": "Point",
        "coordinates": [
          -4.241,
          55.862983
        ]
      }
    },
    {
      "type": "Feature",
      "properties": {
        "id": 264316,
        "title": "Bridge Street Subway",
        "nearest-address": "141 Norfolk Street",
        "racks": 5,
        "ward": "Southside Central",
        "permanent": true
      },
      "geometry": {
        "type": "Point",
        "coordinates": [
          -4.25885,
          55.8525
        ]
      }
    },
    {
      "type": "Feature",
      "properties": {
        "id": 264389,
        "title": "Hillhead Subway",
        "nearest-address": "1 Ashton Road",
        "racks": null,
        "ward": "Hillhead",
        "permanent": true
      },
      "geometry": {
        "type": "Point",
        "coordinates": [
          -4.294333,
          55.874417
        ]
      }
    },
    {
      "type": "Feature",
      "properties": {
        "id": 264392,
        "title": "Argyle Street Railway Station",
        "nearest-address": "47 Argyle Street",
        "racks": null,
        "ward": "Anderston / City",
        "permanent": true
      },
      "geometry": {
        "type": "Point",
        "coordinates": [
          -4.249717,
          55.857567
        ]
      }
    },
    {
      "type": "Feature",
      "properties": {
        "id": 266157,
        "title": "Glasgow Caledonian University",
        "nearest-address": "70 Cowcaddens Road",
        "racks": null,
        "ward": "Anderston / City",
        "permanent": true
      },
      "geometry": {
        "type": "Point",
        "coordinates": [
          -4.251367,
          55.865817
        ]
      }
    },
    {
      "type": "Feature",
      "properties": {
        "id": 266166,
        "title": "Emirates Arena",
        "nearest-address": "1000 London Road",
        "racks": null,
        "ward": "Calton",
        "permanent": true
      },
      "geometry": {
        "type": "Point",
        "coordinates": [
          -4.208,
          55.846367
        ]
      }
    },
    {
      "type": "Feature",
      "properties": {
        "id": 266168,
        "title": "Gallery of Modern Art",
        "nearest-address": "Royal Exchange Square",
        "racks": null,
        "ward": "Anderston / City",
        "permanent": true
      },
      "geometry": {
        "type": "Point",
        "coordinates": [
          -4.251917,
          55.859733
        ]
      }
    },
    {
      "type": "Feature",
      "properties": {
        "id": 266169,
        "title": "Trongate",
        "nearest-address": "30 Saltmarket",
        "racks": null,
        "ward": "Anderston / City",
        "permanent": true
      },
      "geometry": {
        "type": "Point",
        "coordinates": [
          -4.24465,
          55.856083
        ]
      }
    },
    {
      "type": "Feature",
      "properties": {
        "id": 266170,
        "title": "University of Strathclyde (South)",
        "nearest-address": "130 George Street",
        "racks": 6,
        "ward": "Anderston / City",
        "permanent": true
      },
      "geometry": {
        "type": "Point",
        "coordinates": [
          -4.2419,
          55.860633
        ]
      }
    },
    {
      "type": "Feature",
      "properties": {
        "id": 266171,
        "title": "University of Glasgow (East)",
        "nearest-address": "264 Woodlands Road",
        "racks": null,
        "ward": "Hillhead",
        "permanent": true
      },
      "geometry": {
        "type": "Point",
        "coordinates": [
          -4.27795,
          55.87165
        ]
      }
    },
    {
      "type": "Feature",
      "properties": {
        "id": 266218,
        "title": "Partick Interchange",
        "nearest-address": "1 Merkland Court",
        "racks": null,
        "ward": "Partick West",
        "permanent": true
      },
      "geometry": {
        "type": "Point",
        "coordinates": [
          -4.308433,
          55.86995
        ]
      }
    },
    {
      "type": "Feature",
      "properties": {
        "id": 266220,
        "title": "Glasgow Science Centre",
        "nearest-address": "50 Pacific Quay",
        "racks": null,
        "ward": "Govan",
        "permanent": true
      },
      "geometry": {
        "type": "Point",
        "coordinates": [
          -4.292517,
          55.8585
        ]
      }
    },
    {
      "type": "Feature",
      "properties": {
        "id": 14,
        "title": "SECC",
        "nearest-address": "10 Congress Way",
        "racks": null,
        "ward": "Anderston / City",
        "permanent": false
      },
      "geometry": {
        "type": "Point",
        "coordinates": [
          -4.283745,
          55.858753
        ]
      }
    },
    {
      "type": "Feature",
      "properties": {
        "id": 19,
        "title": "Scotstoun Leisure Centre",
        "nearest-address": "84 Victoria Park Drive North",
        "racks": null,
        "ward": "Partick West",
        "permanent": false
      },
      "geometry": {
        "type": "Point",
        "coordinates": [
          -4.337239,
          55.878363
        ]
      }
    },
    {
      "type": "Feature",
      "properties": {
        "id": 27,
        "title": "Hampden Park",
        "nearest-address": "Holyrood High School",
        "racks": null,
        "ward": "Langside",
        "permanent": false
      },
      "geometry": {
        "type": "Point",
        "coordinates": [
          -4.248732,
          55.832401
        ]
      }
    },
    {
      "type": "Feature",
      "properties": {
        "id": 29,
        "title": "Tollcross Leisure Centre",
        "nearest-address": "Tollcross Mansion, Tollcross Park",
        "racks": null,
        "ward": "Shettleston",
        "permanent": false
      },
      "geometry": {
        "type": "Point",
        "coordinates": [
          -4.180142,
          55.846219
        ]
      }
    },
    {
      "type": "Feature",
      "properties": {
        "id": 36,
        "title": "Cathkin Braes MBC",
        "nearest-address": "227 Castlemilk Drive",
        "racks": null,
        "ward": "Linn",
        "permanent": false
      },
      "geometry": {
        "type": "Point",
        "coordinates": [
          -4.231592,
          55.800682
        ]
      }
    },
    {
      "type": "Feature",
      "properties": {
        "id": 37,
        "title": "Ibrox Stadium",
        "nearest-address": "67 Woodville Street",
        "racks": null,
        "ward": "Govan",
        "permanent": false
      },
      "geometry": {
        "type": "Point",
        "coordinates": [
          -4.304535,
          55.854547
        ]
      }
    }
  ]
}