{
  "type": "FeatureCollection",
  "features": [
    {
      "type": "Feature",
      "properties": {
        "id": 1,
        "title": "Glasgow Central 1",
        "description": "Glasgow Central 1, Union Street",
        "marker-symbol": "bicycle"
      },
      "geometry": {
        "type": "Point",
        "coordinates": [
          -4.257068037986755,
          55.85997483470282
        ]
      }
    },
    {
      "type": "Feature",
      "properties": {
        "id": 2,
        "title": "Glasgow Central 2",
        "description": "Glasgow Central 2, Hope Street",
        "marker-symbol": "bicycle"
      },
      "geometry": {
        "type": "Point",
        "coordinates": [
          -4.258733689785004,
          55.86032857909663
        ]
      }
    },
    {
      "type": "Feature",
      "properties": {
        "id": 3,
        "title": "Glasgow Queen Street Station",
        "description": "Glasgow Queen Street Station, Dundas Street",
        "marker-symbol": "bicycle"
      },
      "geometry": {
        "type": "Point",
        "coordinates": [
          -4.252189099788666,
          55.86218003975857
        ]
      }
    },
    {
      "type": "Feature",
      "properties": {
        "id": 4,
        "title": "Buchanan Bus Station 1",
        "description": "Buchanan Bus Station 1, Cowcaddens Road",
        "marker-symbol": "bicycle"
      },
      "geometry": {
        "type": "Point",
        "coordinates": [
          -4.251776039600372,
          55.865840554302565
        ]
      }
    },
    {
      "type": "Feature",
      "properties": {
        "id": 5,
        "title": "Buchanan Bus Station 2",
        "description": "Buchanan Bus Station 2, Killermont Street",
        "marker-symbol": "bicycle"
      },
      "geometry": {
        "type": "Point",
        "coordinates": [
          -4.252500236034393,
          55.865047371750144
        ]
      }
    },
    {
      "type": "Feature",
      "properties": {
        "id": 6,
        "title": "George Square 1",
        "description": "George Square 1, South Frederick Street",
        "marker-symbol": "bicycle"
      },
      "geometry": {
        "type": "Point",
        "coordinates": [
          -4.2493030428886405,
          55.86073199430394
        ]
      }
    },
    {
      "type": "Feature",
      "properties": {
        "id": 7,
        "title": "George Square 2",
        "description": "George Square 2, George Street",
        "marker-symbol": "bicycle"
      },
      "geometry": {
        "type": "Point",
        "coordinates": [
          -4.2490509152412415,
          55.86134915125347
        ]
      }
    },
    {
      "type": "Feature",
      "properties": {
        "id": 8,
        "title": "West Nile Street",
        "marker-symbol": "bicycle"
      },
      "geometry": {
        "type": "Point",
        "coordinates": [
          -4.254825711250305,
          55.86296876530341
        ]
      }
    },
    {
      "type": "Feature",
      "properties": {
        "id": 9,
        "title": "Glasgow Cathedral",
        "description": "Glasgow Cathedral, Cathedral Square",
        "marker-symbol": "bicycle"
      },
      "geometry": {
        "type": "Point",
        "coordinates": [
          -4.236058294773102,
          55.862827277548476
        ]
      }
    },
    {
      "type": "Feature",
      "properties": {
        "id": 10,
        "title": "St Enoch Subway Station",
        "description": "St Enoch Subway Station, St Enoch Square",
        "marker-symbol": "bicycle"
      },
      "geometry": {
        "type": "Point",
        "coordinates": [
          -4.255152940750122,
          55.85765358945237
        ]
      }
    },
    {
      "type": "Feature",
      "properties": {
        "id": 11,
        "title": "Glasgow Green 1",
        "description": "Glasgow Green 1, Hockey Stadium (CG2014 possible MACH station location)",
        "marker-symbol": "bicycle"
      },
      "geometry": {
        "type": "Point",
        "coordinates": [
          -4.235382378101349,
          55.846079917165746
        ]
      }
    },
    {
      "type": "Feature",
      "properties": {
        "id": 12,
        "title": "Glasgow Green 2",
        "description": "Glasgow Green 2, People's Palace (CG2014 possible MACH station location)",
        "marker-symbol": "bicycle"
      },
      "geometry": {
        "type": "Point",
        "coordinates": [
          -4.236822724342346,
          55.85142076636789
        ]
      }
    },
    {
      "type": "Feature",
      "properties": {
        "id": 13,
        "title": "Argyle Street",
        "description": "Argyle Street, opposite Radisson Hotel",
        "marker-symbol": "bicycle"
      },
      "geometry": {
        "type": "Point",
        "coordinates": [
          -4.259605407714844,
          55.85869530680905
        ]
      }
    },
    {
      "type": "Feature",
      "properties": {
        "id": 14,
        "title": "SECC",
        "description": "SECC (CG2014 possible MACH station location)",
        "marker-symbol": "bicycle"
      },
      "geometry": {
        "type": "Point",
        "coordinates": [
          -4.287189245223999,
          55.86017353407796
        ]
      }
    },
    {
      "type": "Feature",
      "properties": {
        "id": 15,
        "title": "Riverside Museum",
        "marker-symbol": "bicycle"
      },
      "geometry": {
        "type": "Point",
        "coordinates": [
          -4.305830597877502,
          55.8657577750968
        ]
      }
    },
    {
      "type": "Feature",
      "properties": {
        "id": 16,
        "title": "Botanic Gardens",
        "description": "Botanic Gardens, in gardens",
        "marker-symbol": "bicycle"
      },
      "geometry": {
        "type": "Point",
        "coordinates": [
          -4.291926026344299,
          55.87952679828253
        ]
      }
    },
    {
      "type": "Feature",
      "properties": {
        "id": 17,
        "title": "Kelvinside Subway Station",
        "description": "Kelvinside Subway Station, SPT site",
        "marker-symbol": "bicycle"
      },
      "geometry": {
        "type": "Point",
        "coordinates": [
          -4.279571771621704,
          55.87423044040547
        ]
      }
    },
    {
      "type": "Feature",
      "properties": {
        "id": 18,
        "title": "Scotstoun Leisure Centre",
        "description": "Scotstoun Leisure Centre, Victoria Park (CG2014 possible MACH station location)",
        "marker-symbol": "bicycle"
      },
      "geometry": {
        "type": "Point",
        "coordinates": [
          -4.341396689414978,
          55.88082670296598
        ]
      }
    },
    {
      "type": "Feature",
      "properties": {
        "id": 19,
        "title": "Kelvingrove Art Gallery 1",
        "description": "Kelvingrove Art Gallery 1 (CG2014 possible MACH station location)",
        "marker-symbol": "bicycle"
      },
      "geometry": {
        "type": "Point",
        "coordinates": [
          -4.289431571960449,
          55.86830428371601
        ]
      }
    },
    {
      "type": "Feature",
      "properties": {
        "id": 20,
        "title": "Kelvingrove Art Gallery 2",
        "description": "Kelvingrove Art Gallery 2 (CG2014 possible MACH station location)",
        "marker-symbol": "bicycle"
      },
      "geometry": {
        "type": "Point",
        "coordinates": [
          -4.291636347770691,
          55.86899656806888
        ]
      }
    },
    {
      "type": "Feature",
      "properties": {
        "id": 21,
        "title": "Glasgow University",
        "marker-symbol": "bicycle"
      },
      "geometry": {
        "type": "Point",
        "coordinates": [
          -4.288291633129119,
          55.87229377918022
        ]
      }
    },
    {
      "type": "Feature",
      "properties": {
        "id": 22,
        "title": "Partick Interchange",
        "description": "Partick Interchange, Interchange Square",
        "marker-symbol": "bicycle"
      },
      "geometry": {
        "type": "Point",
        "coordinates": [
          -4.308445751667023,
          55.870050020581324
        ]
      }
    },
    {
      "type": "Feature",
      "properties": {
        "id": 23,
        "title": "Shields Road Park & Ride",
        "description": "Shields Road Park & Ride, SPT Site",
        "marker-symbol": "bicycle"
      },
      "geometry": {
        "type": "Point",
        "coordinates": [
          -4.274931550025939,
          55.84998436540288
        ]
      }
    },
    {
      "type": "Feature",
      "properties": {
        "id": 24,
        "title": "Bellahouston Park",
        "description": "Bellahouston Park, community cycle track",
        "marker-symbol": "bicycle"
      },
      "geometry": {
        "type": "Point",
        "coordinates": [
          -4.323323965072632,
          55.84519296700789
        ]
      }
    },
    {
      "type": "Feature",
      "properties": {
        "id": 25,
        "title": "Pollok Country Park",
        "marker-symbol": "bicycle"
      },
      "geometry": {
        "type": "Point",
        "coordinates": [
          -4.3082499504089355,
          55.829953539172365
        ]
      }
    },
    {
      "type": "Feature",
      "properties": {
        "id": 26,
        "title": "BBC / STV / Glasgow Science Centre",
        "marker-symbol": "bicycle"
      },
      "geometry": {
        "type": "Point",
        "coordinates": [
          -4.292773604393005,
          55.85836412801871
        ]
      }
    },
    {
      "type": "Feature",
      "properties": {
        "id": 27,
        "title": "Hampden Park",
        "description": "Hampden Park, Holyrood Sports Centre (CG2014 possible MACH station location)",
        "marker-symbol": "bicycle"
      },
      "geometry": {
        "type": "Point",
        "coordinates": [
          -4.249048233032227,
          55.8321559288536
        ]
      }
    },
    {
      "type": "Feature",
      "properties": {
        "id": 28,
        "title": "Emirates Arena & Sir Chris Hoy Velodrome",
        "description": "Emirates Arena & Sir Chris Hoy Velodrome (CG2014 possible MACH station location)",
        "marker-symbol": "bicycle"
      },
      "geometry": {
        "type": "Point",
        "coordinates": [
          -4.209641218185425,
          55.84727101873063
        ]
      }
    },
    {
      "type": "Feature",
      "properties": {
        "id": 29,
        "title": "Tollcross Leisure Centre",
        "description": "Tollcross Leisure Centre, Tollcross Park (CG2014 possible MACH station location)",
        "marker-symbol": "bicycle"
      },
      "geometry": {
        "type": "Point",
        "coordinates": [
          -4.176928997039795,
          55.845223084492886
        ]
      }
    },
    {
      "type": "Feature",
      "properties": {
        "id": 30,
        "title": "Dalmarnock Station",
        "description": "Dalmarnock Station (CG2014 possible MACH station location)",
        "marker-symbol": "bicycle"
      },
      "geometry": {
        "type": "Point",
        "coordinates": [
          -4.21774685382843,
          55.84191604525772
        ]
      }
    }
  ]
}