{
  "type": "FeatureCollection",
  "features": [
    {
      "type": "Feature",
      "properties": {
        "id": 1,
        "title": "Glasgow Central station",
        "nearest-address": "107 Hope Street",
        "ward": "Anderston / City",
        "permanent": true
      },
      "geometry": {
        "type": "Point",
        "coordinates": [
          -4.258785,
          55.860697
        ]
      }
    },
    {
      "type": "Feature",
      "properties": {
        "id": 2,
        "title": "Waterloo Street",
        "nearest-address": "76 Waterloo Street",
        "ward": "Anderston / City",
        "permanent": true
      },
      "geometry": {
        "type": "Point",
        "coordinates": [
          -4.263546,
          55.860613
        ]
      }
    },
    {
      "type": "Feature",
      "properties": {
        "id": 3,
        "title": "Glasgow Queen Street station",
        "nearest-address": "1 Dundas Street",
        "ward": "Anderston / City",
        "permanent": true
      },
      "geometry": {
        "type": "Point",
        "coordinates": [
          -4.252233,
          55.861869
        ]
      }
    },
    {
      "type": "Feature",
      "properties": {
        "id": 4,
        "title": "Buchanan Bus Station",
        "nearest-address": "10 Killermont Street",
        "ward": "Anderston / City",
        "permanent": true
      },
      "geometry": {
        "type": "Point",
        "coordinates": [
          -4.25248,
          55.864979
        ]
      }
    },
    {
      "type": "Feature",
      "properties": {
        "id": 5,
        "title": "Glasgow Caledonian University",
        "nearest-address": "70 Cowcaddens Road",
        "ward": "Anderston / City",
        "permanent": true
      },
      "geometry": {
        "type": "Point",
        "coordinates": [
          -4.24972,
          55.866155
        ]
      }
    },
    {
      "type": "Feature",
      "properties": {
        "id": 6,
        "title": "George Square",
        "nearest-address": "50 West George Street",
        "ward": "Anderston / City",
        "permanent": true
      },
      "geometry": {
        "type": "Point",
        "coordinates": [
          -4.25106,
          55.861571
        ]
      }
    },
    {
      "type": "Feature",
      "properties": {
        "id": 7,
        "title": "Merchant Square",
        "nearest-address": "20 Bell Street",
        "ward": "Anderston / City",
        "permanent": true
      },
      "geometry": {
        "type": "Point",
        "coordinates": [
          -4.245331,
          55.858136
        ]
      }
    },
    {
      "type": "Feature",
      "properties": {
        "id": 8,
        "title": "St George's Cross",
        "nearest-address": "98 Great Western Road",
        "ward": "Hillhead",
        "permanent": true
      },
      "geometry": {
        "type": "Point",
        "coordinates": [
          -4.269653,
          55.871525
        ]
      }
    },
    {
      "type": "Feature",
      "properties": {
        "id": 9,
        "title": "Glasgow Cathedral",
        "nearest-address": "20 Cathedral Street",
        "ward": "Anderston / City",
        "permanent": true
      },
      "geometry": {
        "type": "Point",
        "coordinates": [
          -4.237244,
          55.863043
        ]
      }
    },
    {
      "type": "Feature",
      "properties": {
        "id": 10,
        "title": "St Enoch Square",
        "nearest-address": "14 St Enoch Square",
        "ward": "Anderston / City",
        "permanent": true
      },
      "geometry": {
        "type": "Point",
        "coordinates": [
          -4.255429,
          55.857779
        ]
      }
    },
    {
      "type": "Feature",
      "properties": {
        "id": 11,
        "title": "Arygle Street Station",
        "nearest-address": "47 Argyle Street",
        "ward": "Anderston / City",
        "permanent": true
      },
      "geometry": {
        "type": "Point",
        "coordinates": [
          -4.250413,
          55.857571
        ]
      }
    },
    {
      "type": "Feature",
      "properties": {
        "id": 12,
        "title": "Glasgow Green",
        "nearest-address": "82 Templeton Street",
        "ward": "Calton",
        "permanent": true
      },
      "geometry": {
        "type": "Point",
        "coordinates": [
          -4.233226,
          55.849284
        ]
      }
    },
    {
      "type": "Feature",
      "properties": {
        "id": 13,
        "title": "Broomielaw",
        "nearest-address": "150 Broomielaw (5 Atlantic Quay)",
        "ward": "Anderston / City",
        "permanent": true
      },
      "geometry": {
        "type": "Point",
        "coordinates": [
          -4.264546,
          55.856689
        ]
      }
    },
    {
      "type": "Feature",
      "properties": {
        "id": 14,
        "title": "SECC",
        "nearest-address": "10 Congress Way",
        "ward": "Anderston / City",
        "permanent": false
      },
      "geometry": {
        "type": "Point",
        "coordinates": [
          -4.283745,
          55.858753
        ]
      }
    },
    {
      "type": "Feature",
      "properties": {
        "id": 15,
        "title": "S.E.C.C / Armadillo / Hydro Arena",
        "nearest-address": "1 Congress Road",
        "ward": "Anderston / City",
        "permanent": true
      },
      "geometry": {
        "type": "Point",
        "coordinates": [
          -4.28705,
          55.859117
        ]
      }
    },
    {
      "type": "Feature",
      "properties": {
        "id": 16,
        "title": "Riverside Museum",
        "nearest-address": "100 Pointhouse Road",
        "ward": "Anderston / City",
        "permanent": true
      },
      "geometry": {
        "type": "Point",
        "coordinates": [
          -4.305546,
          55.865659
        ]
      }
    },
    {
      "type": "Feature",
      "properties": {
        "id": 17,
        "title": "Botanic Gardens",
        "nearest-address": "735 Great Western Road",
        "ward": "Maryhill / Kelvin",
        "permanent": true
      },
      "geometry": {
        "type": "Point",
        "coordinates": [
          -4.289453,
          55.877851
        ]
      }
    },
    {
      "type": "Feature",
      "properties": {
        "id": 18,
        "title": "Kelvinbridge subway station",
        "nearest-address": "445 Great Western Road",
        "ward": "Hillhead",
        "permanent": true
      },
      "geometry": {
        "type": "Point",
        "coordinates": [
          -4.280473,
          55.874888
        ]
      }
    },
    {
      "type": "Feature",
      "properties": {
        "id": 19,
        "title": "Scotstoun Leisure Centre",
        "nearest-address": "84 Victoria Park Drive North",
        "ward": "Partick West",
        "permanent": false
      },
      "geometry": {
        "type": "Point",
        "coordinates": [
          -4.337239,
          55.878363
        ]
      }
    },
    {
      "type": "Feature",
      "properties": {
        "id": 20,
        "title": "Kelvingrove Art Gallery",
        "nearest-address": "1 Kelvingrove Park",
        "ward": "Anderston / City",
        "permanent": true
      },
      "geometry": {
        "type": "Point",
        "coordinates": [
          -4.289399,
          55.868342
        ]
      }
    },
    {
      "type": "Feature",
      "properties": {
        "id": 21,
        "title": "Charing Cross station",
        "nearest-address": "34 Elmbank Crescent",
        "ward": "Anderston / City",
        "permanent": true
      },
      "geometry": {
        "type": "Point",
        "coordinates": [
          -4.270071,
          55.86456
        ]
      }
    },
    {
      "type": "Feature",
      "properties": {
        "id": 22,
        "title": "University of Glasgow (West)",
        "nearest-address": "121 University Avenue",
        "ward": "Hillhead",
        "permanent": true
      },
      "geometry": {
        "type": "Point",
        "coordinates": [
          -4.292688,
          55.87282
        ]
      }
    },
    {
      "type": "Feature",
      "properties": {
        "id": 23,
        "title": "Partick Interchange",
        "nearest-address": "1 Merkland Court",
        "ward": "Partick West",
        "permanent": true
      },
      "geometry": {
        "type": "Point",
        "coordinates": [
          -4.308271,
          55.869903
        ]
      }
    },
    {
      "type": "Feature",
      "properties": {
        "id": 24,
        "title": "University of Strathclyde (North)",
        "nearest-address": "1 Taylor Street",
        "ward": "Anderston / City",
        "permanent": true
      },
      "geometry": {
        "type": "Point",
        "coordinates": [
          -4.240857,
          55.862991
        ]
      }
    },
    {
      "type": "Feature",
      "properties": {
        "id": 25,
        "title": "Mitchell Library",
        "nearest-address": "17 North Street",
        "ward": "Anderston / City",
        "permanent": true
      },
      "geometry": {
        "type": "Point",
        "coordinates": [
          -4.271917,
          55.866026
        ]
      }
    },
    {
      "type": "Feature",
      "properties": {
        "id": 26,
        "title": "Glasgow Science Centre",
        "nearest-address": "50 Pacific Quay",
        "ward": "Govan",
        "permanent": true
      },
      "geometry": {
        "type": "Point",
        "coordinates": [
          -4.292959,
          55.858432
        ]
      }
    },
    {
      "type": "Feature",
      "properties": {
        "id": 27,
        "title": "Hampden Park",
        "nearest-address": "Holyrood High School",
        "ward": "Langside",
        "permanent": false
      },
      "geometry": {
        "type": "Point",
        "coordinates": [
          -4.248732,
          55.832401
        ]
      }
    },
    {
      "type": "Feature",
      "properties": {
        "id": 28,
        "title": "Emirates Area",
        "nearest-address": "1000 London Road",
        "ward": "Calton",
        "permanent": true
      },
      "geometry": {
        "type": "Point",
        "coordinates": [
          -4.20911,
          55.845995
        ]
      }
    },
    {
      "type": "Feature",
      "properties": {
        "id": 29,
        "title": "Tollcross Leisure Centre",
        "nearest-address": "1000 London Road",
        "ward": "Shettleston",
        "permanent": false
      },
      "geometry": {
        "type": "Point",
        "coordinates": [
          -4.180142,
          55.846219
        ]
      }
    },
    {
      "type": "Feature",
      "properties": {
        "id": 30,
        "title": "Gallery of Modern Art",
        "nearest-address": "Royal Exchange Square",
        "ward": "Anderston / City",
        "permanent": true
      },
      "geometry": {
        "type": "Point",
        "coordinates": [
          -4.252034,
          55.860261
        ]
      }
    },
    {
      "type": "Feature",
      "properties": {
        "id": 31,
        "title": "Trongate",
        "nearest-address": "30 Saltmarket",
        "ward": "Anderston / City",
        "permanent": true
      },
      "geometry": {
        "type": "Point",
        "coordinates": [
          -4.244676,
          55.856091
        ]
      }
    },
    {
      "type": "Feature",
      "properties": {
        "id": 32,
        "title": "Bridge Street Subway",
        "nearest-address": "141 Norfolk Street",
        "ward": "Southside Central",
        "permanent": true
      },
      "geometry": {
        "type": "Point",
        "coordinates": [
          -4.258684,
          55.851995
        ]
      }
    },
    {
      "type": "Feature",
      "properties": {
        "id": 33,
        "title": "University of Strathclyde (South)",
        "nearest-address": "130 George Street",
        "ward": "Anderston / City",
        "permanent": true
      },
      "geometry": {
        "type": "Point",
        "coordinates": [
          -4.244919,
          55.860988
        ]
      }
    },
    {
      "type": "Feature",
      "properties": {
        "id": 34,
        "title": "Hillhead subway station",
        "nearest-address": "1 Ashton Road",
        "ward": "Hillhead",
        "permanent": true
      },
      "geometry": {
        "type": "Point",
        "coordinates": [
          -4.294365,
          55.874408
        ]
      }
    },
    {
      "type": "Feature",
      "properties": {
        "id": 35,
        "title": "University of Glasgow (East)",
        "nearest-address": "264 Woodlands Road",
        "ward": "Hillhead",
        "permanent": true
      },
      "geometry": {
        "type": "Point",
        "coordinates": [
          -4.277297,
          55.871501
        ]
      }
    },
    {
      "type": "Feature",
      "properties": {
        "id": 36,
        "title": "Cathkin Braes MBC",
        "nearest-address": "227 Castlemilk Drive",
        "ward": "Linn",
        "permanent": false
      },
      "geometry": {
        "type": "Point",
        "coordinates": [
          -4.231592,
          55.800682
        ]
      }
    },
    {
      "type": "Feature",
      "properties": {
        "id": 37,
        "title": "Ibrox Stadium",
        "nearest-address": "67 Woodville Street",
        "ward": "Govan",
        "permanent": false
      },
      "geometry": {
        "type": "Point",
        "coordinates": [
          -4.304535,
          55.854547
        ]
      }
    }
  ]
}